     3.04           OBSERVATION DATA    M                   RINEX VERSION / TYPE
sbf2rin-15.4.0                          20220620 175930 UTC PGM / RUN BY / DATE 
SEPT                                                        MARKER NAME         
Unknown                                                     MARKER NUMBER       
Unknown             Unknown                                 OBSERVER / AGENCY   
3240681             SEPT ASTERX-I3      1.3.1               REC # / TYPE / VERS 
                    Unknown                                 ANT # / TYPE        
   197114.1885 -4755062.9128  4232295.3693                  APPROX POSITION XYZ 
        0.0000        0.0000        0.0000                  ANTENNA: DELTA H/E/N
G    6 C1C L1C C2W L2W C2L L2L                              SYS / # / OBS TYPES 
E    6 C1C L1C C5Q L5Q C7Q L7Q                              SYS / # / OBS TYPES 
R    4 C1C L1C C2C L2C                                      SYS / # / OBS TYPES 
C    4 C2I L2I C7I L7I                                      SYS / # / OBS TYPES 
SEPTENTRIO RECEIVERS OUTPUT ALIGNED CARRIER PHASES.         COMMENT             
NO FURTHER PHASE SHIFT APPLIED IN THE RINEX ENCODER.        COMMENT             
G L1C                                                       SYS / PHASE SHIFT   
G L2W                                                       SYS / PHASE SHIFT   
G L2L  0.00000                                              SYS / PHASE SHIFT   
E L1C  0.00000                                              SYS / PHASE SHIFT   
E L5Q  0.00000                                              SYS / PHASE SHIFT   
E L7Q  0.00000                                              SYS / PHASE SHIFT   
R L1C                                                       SYS / PHASE SHIFT   
R L2C                                                       SYS / PHASE SHIFT   
C L2I                                                       SYS / PHASE SHIFT   
C L7I                                                       SYS / PHASE SHIFT   
     1.000                                                  INTERVAL            
  2022     6    16    19    44    0.0000000     GPS         TIME OF FIRST OBS   
  2022     6    16    20     2    1.0000000     GPS         TIME OF LAST OBS    
    33                                                      # OF SATELLITES     
 C1C    0.000 C2C    0.000                                  GLONASS COD/PHS/BIS 
    18                                                      LEAP SECONDS        
  7 R03  5 R04  6 R05  1 R10 -7 R11  0 R19  3 R20  2        GLONASS SLOT / FRQ #
                                                            END OF HEADER       
> 2022 06 16 19 44  0.0000000  0 31
C11  22996642.792 7 119749591.04107  22996643.125 6  92597977.24506
C14  22033781.034 7 114735679.17707  22033780.124 6  88720895.05306
C21  25489625.202 7 132731169.87707
C28  23107877.187 7 120328780.14607
C33  23541739.242 7 122588023.36107
C34  24861862.726 6 129462240.27406
C37  26403122.636 4
E02  25835105.568 7 135764368.70307                                  25835107.212 5 104027272.39605
E04  25622968.628 6 134649607.11306  25622967.644 4                  25622971.310 5 103173092.84805
E09  27417130.664 6 144077984.70606                                  27417138.130 5
E11  22569373.376 7 118602856.66707                                  22569371.618 6  90877506.97906
E12  26319101.934 6 138307808.10306                                  26319103.807 5
E19  28436521.234 6 149434923.09006                                  28436523.872 4
E24  28656791.310 3
E25  25916109.245 6 136190100.63106  25916109.362 4                  25916113.868 6 104353444.31506
E36  25297408.566 7 132938755.52007  25297407.953 4                  25297412.026 5 101862200.28405
G02  21447045.431 7 112704993.17907  21447043.648 5  87822055.84905
G05  20745434.565 7 109017990.74507  20745434.123 6  84949080.22706  20745434.718 6  84949098.21606
G06  23522926.183 6 123613804.60906  23522929.972 4  96322465.32204  23522931.224 5  96322473.30305
G09  24805039.745 5 130351372.68605  24805044.034 3 101572517.89203  24805042.845 5 101572516.89705
G11  20920089.925 7 109935826.12407  20920090.495 5  85664301.30405  20920090.298 7  85664270.29307
G12  22670401.176 7 119133777.89007  22670401.947 6  92831493.97406  22670401.526 6  92831510.98006
G20  20204402.133 7 106174849.10007  20204400.189 5  82733639.72905
G25  22066627.918 7 115960910.48007  22066630.884 5  90359166.29405  22066632.673 5  90359166.30605
G29  22798947.178 6 119809282.78106  22798948.042 5  93357885.43705  22798948.664 5  93357893.43305
R03  23351378.533 4                  23351387.938 6  97223627.04306
R04                                  20142225.537 7  83891660.05207
R05  20613397.549 5 110190424.13905  20613407.119 6  85703703.76806
R11  22924238.921 4 122500256.22404  22924245.167 5  95277942.24805
R19                                  20929250.268 6  87077975.18806
R20                                  20271642.372 6  84312310.13506
> 2022 06 16 19 44  1.0000000  0 31
C11  22996940.235 7 119751140.07207  22996940.993 6  92599175.05806
C14  22033483.971 7 114734132.05107  22033482.838 6  88719698.71006
C21  25490115.985 7 132733724.03807
C28  23107436.357 7 120326484.27307
C33  23541173.475 7 122585078.68507
C34  24862305.055 6 129464544.10506
C37  26403428.522 4
E02  25835076.144 6 135764214.99806                                  25835077.829 5 104027154.61705
E04  25622612.830 6 134647737.77106  25622611.739 4                  25622615.579 5 103171660.49605
E09  27416506.108 6 144074704.07406                                  27416514.093 5
E11  22569375.410 7 118602867.32307                                  22569373.634 6  90877515.16006
E12  26319427.101 6 138309517.13706                                  26319429.180 5
E19  28436695.574 6 149435838.56406                                  28436698.185 4
E24  28657327.323 3
E25  25916512.670 6 136192221.34206  25916513.346 4                  25916517.468 6 104355069.28806
E36  25297061.854 7 132936933.35507  25297061.161 4                  25297065.302 5 101860804.08405
G02  21447163.557 7 112705614.29707  21447161.900 5  87822539.83405
G05  20745022.451 7 109015825.40907  20745022.086 6  84947392.95006  20745022.757 6  84947410.95406
G06  23523388.938 6 123616236.44806  23523392.736 4  96324360.25804  23523393.755 5  96324368.25105
G09  24805354.543 5 130353028.62905  24805359.212 3 101573808.23503  24805358.300 5 101573807.21705
G11  20920301.782 7 109936939.56507  20920302.356 5  85665168.91605  20920302.111 7  85665137.90507
G12  22670956.520 7 119136695.01207  22670957.049 6  92833767.05406  22670957.090 6  92833784.04906
G20  20204431.207 7 106175002.13407  20204429.335 5  82733758.97505
G25  22066796.485 7 115961796.02007  22066799.388 5  90359856.31805  22066801.476 5  90359856.35305
G29  22798330.787 6 119806042.98006  22798331.504 5  93355360.92005  22798332.170 5  93355368.92905
R03  23352040.105 4                  23352050.699 6  97226388.68306
R04                                  20142330.227 7  83892096.66807
R05  20612754.762 5 110186989.29705  20612764.596 6  85701032.20706
R11  22924126.978 4 122499669.13004  22924135.214 5  95277485.63405
R19                                  20929540.830 6  87079184.79606
R20                                  20271303.607 6  84310900.40506
> 2022 06 16 19 44  2.0000000  0 31
C11  22997237.844 7 119752689.24307  22997238.835 6  92600372.97106
C14  22033186.970 7 114732585.12407  22033186.020 6  88718502.56606
C21  25490606.679 7 132736278.10707
C28  23106995.092 7 120324187.45507
C33  23540607.779 7 122582133.93107
C34  24862747.629 6 129466848.08406
C37  26403735.494 4
E02  25835046.681 6 135764060.58606                                  25835048.299 5 104027036.32605
E04  25622257.331 7 134645868.74007  25622255.914 4                  25622259.946 5 103170228.42105
E09  27415881.605 6 144071423.20106                                  27415889.644 5
E11  22569377.253 7 118602877.49907                                  22569375.656 6  90877522.96806
E12  26319752.255 6 138311226.13306                                  26319754.459 5 105978743.83015
E19  28436869.972 6 149436754.11506                                  28436872.314 4
E24  28657863.618 3
E25  25916915.930 6 136194341.38206  25916916.333 4                  25916920.862 6 104356693.75106
E36  25296714.785 6 132935110.14306  25296714.561 4                  25296718.272 5 101859407.11005
G02  21447281.957 7 112706235.12607  21447280.067 5  87823023.59605
G05  20744610.369 7 109013659.94907  20744610.008 6  84945705.57406  20744610.835 6  84945723.59206
G06  23523852.002 6 123618668.25706  23523855.468 4  96326255.17704  23523857.136 5  96326263.16405
G09  24805668.562 5 130354684.69605  24805674.421 3 101575098.67003  24805674.859 5 101575097.64705
G11  20920513.710 7 109938052.82607  20920514.181 5  85666036.38805  20920514.172 7  85666005.39107
G12  22671511.668 7 119139611.73607  22671512.089 6  92836039.82406  22671512.067 6  92836056.83606
G20  20204460.112 7 106175155.16607  20204458.459 5  82733878.22205
G25  22066964.895 7 115962681.11507  22066967.812 5  90360546.00405  22066969.972 5  90360546.00705
G29  22797714.754 7 119802802.24907  22797714.814 5  93352835.67805  22797715.753 5  93352843.69005
R03  23352702.455 4                  23352713.787 6  97229150.20706
R04                                  20142435.086 7  83892533.74107
R05  20612113.201 6 110183554.77106  20612122.180 6  85698360.91506
R11  22924016.551 4 122499081.71204  22924025.888 5  95277028.74705
R19                                  20929832.550 6  87080394.51506
R20                                  20270964.260 6  84309490.14706
> 2022 06 16 19 44  3.0000000  0 31
C11  22997535.842 7 119754241.38707  22997536.645 6  92601573.17906
C14  22032890.175 7 114731040.14307  22032889.373 6  88717307.86706
C21  25491097.797 7 132738833.59007
C28  23106553.564 7 120321887.26807
C33  23540042.239 7 122579190.21507
C34  24863191.201 7 129469155.97507
C37  26404040.602 4
E02  25835016.533 7 135763902.35207                                  25835018.137 5 104026915.01005
E04  25621902.365 7 134644003.20507  25621900.974 4                  25621904.912 5 103168799.00705
E09  27415257.970 6 144068144.33506                                  27415265.388 5
E11  22569379.131 7 118602887.39207                                  22569377.471 6  90877530.52106
E12  26320078.411 6 138312938.28706                                  26320079.962 5 105980055.77605
E19  28437044.159 6 149437671.72306                                  28437046.806 5
E24  28658401.483 3
E25  25917318.895 6 136196459.18206  25917319.700 4                  25917323.442 6 104358316.48706
E36  25296367.152 7 132933283.04707  25296367.898 4                  25296370.764 5 101858007.09405
G02  21447400.469 7 112706856.61007  21447398.323 5  87823507.86905
G05  20744198.081 7 109011494.17107  20744197.881 6  84944017.96006  20744198.842 6  84944035.96306
G06  23524314.984 6 123621103.16406  23524318.813 4  96328152.51204  23524320.101 5  96328160.47705
G09  24805983.445 5 130356342.08705  24805989.836 3 101576390.14203  24805989.577 4 101576389.26904
G11  20920725.732 7 109939167.10507  20920726.221 5  85666904.66205  20920726.122 7  85666873.66307
G12  22672066.364 7 119142527.49207  22672066.928 6  92838311.84206  22672067.438 6  92838328.78506
G20  20204488.963 7 106175308.81407  20204487.681 5  82733997.95005
G25  22067132.648 7 115963563.09807  22067135.623 5  90361233.25505  22067136.808 5  90361233.29005
G29  22797097.527 7 119799557.71107  22797097.390 5  93350307.46505  22797098.405 5  93350315.46705
R03  23353364.792 4                  23353377.524 6  97231912.10706
R04                                  20142540.156 7  83892972.70707
R05  20611469.931 6 110180122.67406  20611479.902 6  85695691.51206
R11  22923904.949 4 122498490.65704  22923915.738 5  95276569.13505
R19                                  20930123.921 6  87081606.38306
R20                                  20270624.166 6  84308078.16906
> 2022 06 16 19 44  4.0000000  0 30
C11  22997834.506 7 119755796.76007  22997835.381 6  92602775.91006
C14  22032593.622 7 114729496.95807  22032593.007 6  88716114.58806
C21  25491589.018 7 132741390.73407
C28  23106111.173 7 120319582.86207
C33  23539476.981 7 122576247.05607
C34  24863635.832 7 129471468.01807
C37  26404344.556 4
E02  25834985.513 6 135763738.98606                                  25834987.413 5 104026789.89805
E04  25621548.105 7 134642141.48907  25621546.576 4                  25621550.277 5 103167372.41805
E09  27414634.555 6 144064867.20706                                  27414641.395 5
E11  22569380.893 7 118602896.78207                                  22569379.143 6  90877537.70606
E12  26320404.840 6 138314654.02606                                  26320406.122 5 105981370.44605
E19  28437219.349 6 149438591.56806                                  28437221.843 5
E25  25917721.113 6 136198573.50106  25917722.240 5                  25917725.678 6 104359936.49606
E36  25296018.705 7 132931451.01007  25296018.893 4                  25296022.187 5 101856603.36105
G02  21447519.034 7 112707478.71907  21447516.696 5  87823992.63305
G05  20743785.690 7 109009327.41507  20743785.579 6  84942329.57806  20743786.487 6  84942347.59406
G06  23524778.835 7 123623541.60207  23524782.865 5  96330052.59605  23524784.166 6  96330060.59606
G09  24806298.784 5 130358001.13605  24806305.421 3 101577682.91203
G11  20920937.830 7 109940282.48907  20920938.453 5  85667773.79705  20920938.413 7  85667742.80007
G12  22672620.778 7 119145441.35607  22672621.432 6  92840582.37106  22672621.803 6  92840599.35106
G20  20204518.096 7 106175462.92007  20204516.965 4  82734118.03004
G25  22067299.712 7 115964440.89707  22067302.633 5  90361917.26705  22067304.020 5  90361917.24705
G29  22796479.317 7 119796308.39307  22796479.081 5  93347775.52305  22796480.208 5  93347783.49005
R03  23354029.306 4                  23354040.549 6  97234674.51606
R04                                  20142646.102 7  83893413.75507
R05  20610828.870 5 110176692.83005  20610838.104 6  85693023.87206
R11  22923792.613 4 122497895.28804  22923804.632 6  95276106.08106
R19                                  20930415.931 6  87082820.67606
R20                                  20270283.665 6  84306663.98206
> 2022 06 16 19 44  5.0000000  0 30
C11  22998133.653 7 119757354.54007  22998134.756 6  92603980.46806
C14  22032297.538 7 114727955.29507  22032296.995 6  88714922.46106
C21  25492080.092 6 132743949.24606
C28  23105668.384 7 120317275.90907
C33  23538911.992 7 122573304.52807
C34  24864081.022 7 129473783.02407
C37  26404645.599 4
E02  25834953.908 6 135763572.79006                                  25834956.165 5 104026662.48805
E04  25621194.418 7 134640282.50407  25621193.045 4                  25621196.469 5 103165948.06305
E09  27414011.349 6 144061591.32106                                  27414018.011 5
E11  22569382.753 7 118602906.04307                                  22569380.816 6  90877544.81406
E12  26320731.943 6 138316372.37006                                  26320732.756 5 105982687.09805
E19  28437394.466 6 149439513.30006                                  28437397.493 4
E25  25918123.161 6 136200685.76806  25918124.275 5                  25918127.351 6 104361555.03406
E36  25295669.623 7 132929615.96107  25295669.247 4                  25295672.940 5 101855197.26205
G02  21447637.679 7 112708101.49307  21447635.200 5  87824477.91605
G05  20743373.147 7 109007160.34907  20743373.211 6  84940640.96306  20743374.078 6  84940658.97606
G06  23525243.168 7 123625982.65207  23525247.422 5  96331954.71005  23525248.549 6  96331962.70506
G09  24806614.100 5                                                  24806619.092 4
G11  20921150.120 7 109941398.87107  20921150.837 5  85668643.69805  20921150.689 7  85668612.67807
G12  22673174.834 7 119148354.19407  22673175.730 6  92842852.11206  22673176.396 6  92842869.12406
G20  20204547.505 7 106175617.64807  20204546.371 4  82734238.59204
G25  22067466.173 6 115965316.26906  22067469.215 5  90362599.36905
G29  22795860.793 7 119793056.18907  22795860.190 5  93345241.32505  22795861.313 5  93345249.30605
R03  23354693.369 4                  23354703.588 6  97237437.45806
R04                                  20142752.487 7  83893856.56307
R05  20610186.920 5 110173264.72905  20610196.467 6  85690357.56006
R11  22923681.721 4 122497297.54804  22923693.329 6  95275641.05906
R19                                  20930708.161 6  87084036.81106
R20                                  20269943.303 6  84305248.56706
> 2022 06 16 19 44  6.0000000  0 30
C11  22998432.194 7 119758910.94107  22998433.762 6  92605183.97806
C14  22032001.086 7 114726413.03907  22032000.817 6  88713729.86706
C21  25492571.343 7 132746507.89107
C28  23105226.065 7 120314971.07707
C33  23538346.631 7 122570361.36107
C34  24864525.243 6 129476096.02306
C37  26404948.659 4
E02  25834922.747 6 135763409.46006                                  25834925.202 5 104026537.29105
E04  25620840.452 7 134638422.01407  25620839.390 4                  25620842.307 5 103164522.44305
E09  27413387.737 6 144058313.61606                                  27413394.997 4
E11  22569384.506 7 118602915.78507                                  22569382.682 5  90877552.31605
E12  26321058.678 6 138318089.25506                                  26321059.760 5 105984002.54305
E19  28437570.000 5 149440435.06505                                  28437573.044 4
E25  25918525.420 5 136202799.15505  25918526.677 4                  25918529.626 6 104363174.46506
E36  25295320.915 7 132927783.09707  25295320.142 4                  25295324.011 5 101853792.93405
G02  21447756.084 7 112708724.29407  21447753.693 5  87824963.21305
G05  20742960.780 7 109004993.81107  20742960.950 6  84938952.75506  20742961.783 6  84938970.80506
G06  23525707.292 6 123628422.28006  23525711.702 5  96333855.71805  23525712.435 6  96333863.76106
G09  24806931.040 5                  24806937.365 3                  24806937.333 5
G11  20921362.498 7 109942515.22707  20921363.228 5  85669513.58705  20921363.158 7  85669482.54007
G12  22673729.115 7 119151267.44207  22673730.099 6  92845122.17306  22673730.414 6  92845139.24006
G20  20204576.850 7 106175772.74507  20204575.855 4  82734359.44804
G25  22067633.008 5 115966193.99505  22067636.261 4  90363283.34404  22067637.835 4  90363283.30904
G29  22795242.491 7 119789806.59207  22795241.830 5  93342709.16905  22795242.169 6  93342717.11006
R03  23355354.769 4                  23355367.546 6  97240201.08506
R04                                  20142858.996 6  83894299.49906
R05  20609545.983 5 110169835.74605  20609555.397 6  85687690.59906
R11  22923572.461 4 122496702.89004  22923581.566 5  95275178.60005
R19                                  20931000.889 6  87085252.14906
R20                                  20269603.639 6  84303834.56106
> 2022 06 16 19 44  7.0000000  0 30
C11  22998730.642 7 119760464.83807  22998731.805 6  92606385.53506
C14  22031704.416 7 114724868.89407  22031704.387 6  88712535.81106
C21  25493062.637 7 132749066.98007
C28  23104784.071 7 120312669.38407
C33  23537781.071 7 122567415.83407
C34  24864968.578 6 129478405.29206
C37  26405250.659 4
E02  25834892.377 6 135763249.91906                                  25834894.895 5 104026415.06905
E04  25620486.023 7 134636558.47107  25620484.960 4                  25620487.828 5 103163094.51205
E09  27412763.244 6 144055031.93806                                  27412770.530 5
E11  22569386.421 6 118602926.14906                                  22569384.497 5  90877560.21605
E12  26321384.951 6 138319803.69306                                  26321386.061 4 105985316.19304
E19  28437745.586 6 149441356.87306                                  28437748.533 5
E25  25918927.437 6 136204913.12706  25918928.967 4                  25918931.503 5 104364794.21605
E36  25294972.445 6 132925953.26106  25294972.053 5                  25294975.592 5 101852390.74305
G02  21447874.488 7 112709347.01807  21447872.173 5  87825448.44905
G05  20742548.494 7 109002826.95007  20742548.636 6  84937264.30606  20742549.850 6  84937282.34306
G06  23526171.183 7 123630859.73007  23526175.548 5  96335755.03805  23526176.351 5  96335763.06805
G09  24807248.228 6 130362960.42416  24807253.685 3 101581556.68913  24807253.727 5
G11  20921574.953 7 109943631.38907  20921575.616 5  85670383.31405  20921575.855 7  85670352.29507
G12  22674283.183 7 119154179.81607  22674284.318 6  92847391.55706  22674284.908 6  92847408.60506
G20  20204606.146 7 106175927.83307  20204605.345 4  82734480.28804
G25  22067800.818 6 115967074.21306  22067803.744 4  90363969.19604  22067803.966 4  90363969.22804
G29  22794624.763 7 119786560.65107  22794624.162 5  93340179.84605  22794624.891 6  93340187.80406
R03  23356020.973 4                  23356032.046 6
R04                                  20142965.640 6  83894742.20706
R05  20608903.796 5 110166404.16205  20608913.385 7  85685021.52607
R11  22923460.648 4 122496113.55304  22923472.107 6  95274720.10806
R19                                  20931292.395 6  87086466.26606
R20                                  20269264.287 6  84302422.69006
> 2022 06 16 19 44  8.0000000  0 30
C11  22999028.957 7 119762017.98007  22999029.997 6  92607586.55306
C14  22031407.770 7 114723324.27207  22031407.464 6  88711341.44506
C21  25493554.328 7 132751627.68007
C28  23104342.606 7 120310370.25807
C33  23537215.096 7 122564469.22107
C34  24865411.907 6 129480713.04506
C37  26405555.270 4
E02  25834862.665 6 135763093.56506                                  25834864.976 5 104026295.15205
E04  25620131.231 7 134634693.84307  25620130.060 5                  25620132.898 6 103161665.75506
E09  27412138.419 6 144051748.01606                                  27412145.555 5
E11  22569388.526 6 118602937.80106                                  22569386.566 5  90877569.13305
E12  26321710.969 6 138321517.61006                                  26321712.279 4 105986629.52704
E19  28437921.653 6 149442280.21806                                  28437924.031 4
E25  25919329.989 6 136207027.53906  25919331.179 3
E36  25294624.833 6 132924125.91106  25294624.516 4                  25294627.944 5 101850990.46005
G02  21447993.240 7 112709970.64907  21447990.858 4  87825934.38304
G05  20742136.140 7 109000660.44207  20742136.382 6  84935576.12406  20742137.634 6  84935594.09006
G06  23526634.956 6 123633296.93106  23526639.357 5  96337654.14305  23526640.462 5  96337662.13305
G09  24807565.380 6 130364624.67006  24807570.367 3 101582853.49903  24807570.228 5
G11  20921787.541 7 109944748.51007  20921788.195 5  85671253.77805  20921788.268 6  85671222.77706
G12  22674837.464 6 119157092.00906  22674838.498 6  92849660.83306  22674838.932 5  92849677.82105
G20  20204635.878 7 106176083.79107  20204635.021 4  82734601.80604
G25  22067968.663 5 115967956.74005  22067971.660 4  90364656.86004  22067972.129 4  90364656.95304
G29  22794007.703 7 119783317.95707  22794007.199 6  93337653.04706  22794008.764 6  93337661.09806
R03  23356683.344 4                  23356697.413 6
R04                                  20143071.532 6  83895185.78806
R05  20608261.725 6 110162971.53706  20608271.245 7  85682351.71207
R11  22923350.731 4                  22923362.782 6  95274265.00706
R19                                  20931584.992 6  87087680.41606
R20                                  20268925.906 6  84301012.89106
> 2022 06 16 19 44  9.0000000  0 30
C11  22999327.103 7 119763570.25907  22999327.910 6  92608786.81806
C14  22031111.297 7 114721779.76707  22031110.910 6  88710147.05606
C21  25494046.179 6 132754188.42506
C28  23103901.539 7 120308073.46607
C33  23536649.414 7 122561522.78707
C34  24865854.499 7 129483019.31707
C37  26405859.153 5
E02  25834833.192 6 135762939.76006                                  25834835.767 5 104026177.47305
E04  25619776.265 7 134632828.21407  25619775.241 5                  25619777.901 6 103160236.22206
E09  27411513.353 6 144048463.26006                                  27411520.212 5
E11  22569390.846 7 118602950.09507                                  22569388.847 5  90877578.53005
E12  26322036.857 6 138323230.34606                                  26322038.028 5 105987941.82405
E19  28438097.490 6 149443203.50506                                  28438099.860 4
E25  25919732.865 6 136209143.87806  25919733.978 4                  25919736.410 5 104368035.89405
E36  25294277.638 6 132922300.77706  25294277.576 4                  25294280.508 5 101849592.03105
G02  21448112.132 7 112710594.50707  21448109.647 4  87826420.48704
G05  20741724.259 7 108998495.09807  20741724.344 6  84933888.82906  20741725.302 6  84933906.83106
G06  23527098.596 6 123635732.91306  23527102.962 5  96339552.30105  23527104.540 5  96339560.32305
G09  24807882.333 6 130366289.39606  24807887.155 4 101584150.69804  24807887.606 5
G11  20922000.288 7 109945865.76007  20922000.749 5  85672124.35405  20922000.915 6  85672093.37906
G12  22675391.757 6 119160005.30806  22675392.881 6  92851930.92006  22675394.942 4  92851947.99804
G20  20204665.632 7 106176240.45807  20204664.869 5  82734723.87705
G25  22068138.455 5                                                  22068140.732 4  90365346.64004
G29  22793391.138 6 119780077.77006  22793390.697 5  93335128.22305  22793392.588 5  93335136.32105
R03  23357349.929 4                  23357362.638 6
R04                                  20143178.279 6  83895629.59706
R05  20607619.860 5 110159538.77805  20607629.031 6  85679681.82606
R11  22923242.134 3                  22923253.795 6  95273812.65406
R19                                  20931876.148 6  87088894.08006
R20                                  20268587.632 5  84299604.53305
> 2022 06 16 19 44 10.0000000  0 30
C11  22999625.105 7 119765122.13007  22999625.952 7  92609986.80807
C14  22030814.877 7 114720235.69607  22030814.419 6  88708953.15106
C21  25494537.803 6 132756749.01506
C28  23103460.610 7 120305778.50907
C33  23536083.847 7 122558577.22807
C34  24866297.159 7 129485324.82507
C37  26406163.724 4
E02  25834804.386 6 135762788.95806                                  25834807.193 6 104026061.71706
E04  25619421.330 7 134630962.24307  25619420.279 5                  25619422.983 6 103158806.45806
E09  27410888.167 6 144045178.52006                                  27410894.395 5
E11  22569393.436 7 118602962.98007                                  22569391.047 5  90877588.43405
E12  26322362.614 6 138324942.05706                                  26322363.884 4 105989253.45304
E19  28438273.069 5 149444126.67805                                  28438275.340 4
E25  25920136.026 6 136211262.38706  25920137.113 4                  25920139.576 5 104369659.14805
E36  25293930.323 6 132920477.75006  25293930.417 4                  25293933.739 5 101848195.14705
G02  21448230.768 7 112711218.59507  21448228.453 4  87826906.78004
G05  20741312.628 7 108996331.38607  20741312.625 6  84932202.81606  20741313.447 6  84932220.77806
G06  23527561.991 6 123638167.96706  23527566.378 5  96341449.75305  23527567.715 5  96341457.75705
G09  24808199.013 6 130367954.17706  24808203.929 3 101585447.91403  24808204.465 5
G11  20922212.846 7 109946983.19407  20922213.330 5  85672995.07705  20922213.496 6  85672964.04606
G12  22675946.936 6 119162920.36906  22675947.568 5  92854202.38505  22675949.589 4  92854219.40404
G20  20204695.838 7 106176398.04007  20204694.856 5  82734846.65605
G25  22068306.909 6                  22068310.255 4                  22068309.911 5  90366038.63805
G29  22792774.881 6                  22792774.516 4                  22792777.476 5  93332613.29005
R03  23358014.953 4                  23358026.656 5
R04                                  20143284.864 6  83896073.93506
R05  20606977.967 5 110156106.66605  20606987.644 6  85677012.43206
R11  22923132.816 3                  22923146.503 5  95273362.12405
R19                                  20932167.761 6  87090107.43106
R20                                  20268249.117 6  84298197.33606
> 2022 06 16 19 44 11.0000000  0 30
C11  22999923.011 7 119766673.15707  22999923.725 6  92611186.17406
C14  22030518.623 7 114718691.02207  22030517.768 7  88707758.71307
C21  25495029.642 6 132759309.99006
C28  23103020.242 7 120303484.30407
C33  23535518.184 7 122555630.62307
C34  24866739.630 7 129487629.03707
C37  26406471.922 4
E02  25834775.915 6 135762639.17406                                  25834778.819 5 104025947.09505
E04  25619065.949 7 134629095.31807  25619064.849 5                  25619067.621 6 103157375.92706
E09  27410262.246 6 144041891.86406                                  27410269.427 5
E11  22569395.953 7 118602976.03207                                  22569393.409 5  90877598.43805
E12  26322688.262 6 138326653.18506                                  26322689.181 5 105990564.51605
E19  28438448.720 5 149445050.35505                                  28438451.239 4
E25  25920539.417 6 136213380.69406  25920540.566 4                  25920542.633 5 104371282.16405
E36  25293583.675 6 132918655.28806  25293583.717 4                  25293587.328 5 101846798.90505
G02  21448349.427 7 112711842.71107  21448347.273 4  87827393.09604
G05  20740900.969 7 108994167.38407  20740900.851 6  84930516.57206  20740901.685 6  84930534.49606
G06  23528025.454 6 123640602.41806  23528029.725 5  96343346.72105  23528031.078 5  96343354.70205
G09  24808515.853 6 130369619.68506  24808520.806 3 101586745.69303  24808521.718 5
G11  20922425.502 7 109948100.69307  20922425.931 4  85673865.84504  20922426.042 6  85673834.81706
G12  22676501.672 6 119165834.72406  22676502.085 5  92856473.33605  22676504.193 5  92856490.23805
G20  20204725.975 7 106176555.69207  20204724.831 4  82734969.48404
G25  22068475.922 7 115970618.79607  22068479.369 4  90366733.04914  22068479.117 5  90366731.14205
G29  22792158.921 6                                                  22792161.209 5  93330090.89705
R03  23358678.061 4                  23358691.713 5  97254036.18405
R04                                  20143391.745 6  83896518.68006
R05  20606335.430 5 110152673.69405  20606345.491 6  85674342.26206
R11  22923026.389 3                  22923037.020 5  95272913.51805
R19                                  20932459.333 6  87091320.47606
R20                                  20267910.759 6  84296790.85706
> 2022 06 16 19 44 12.0000000  0 30
C11  23000220.466 7 119768222.33807  23000221.222 6  92612384.04606
C14  22030221.452 7 114717144.03707  22030220.658 6  88706562.44606
C21  25495521.782 6 132761873.62106
C28  23102580.067 6 120301192.58306
C33  23534951.255 7 122552680.04607
C34  24867181.730 7 129489930.21407
C37  26406776.725 4
E02  25834748.141 6 135762491.99806                                  25834750.805 5 104025834.16305
E04  25618710.253 7 134627225.85407  25618709.189 4                  25618711.958 6 103155943.44106
E09  27409636.066 6 144038599.63506                                  27409643.091 5
E11  22569398.491 6 118602990.11906                                  22569396.303 5  90877609.22305
E12  26323013.812 6 138328363.38206                                  26323014.681 5 105991874.91805
E19  28438624.817 5 149445976.17405                                  28438627.327 4
E25  25920941.926 6 136215496.65106  25920943.562 4                  25920945.702 5 104372903.61005
E36  25293237.249 6 132916834.65106  25293237.551 3                  25293241.103 5 101845403.65705
G02  21448468.408 7 112712467.49007  21448466.170 4  87827879.93104
G05  20740488.931 7 108992001.43207  20740488.705 6  84928828.79606  20740489.307 6  84928846.76006
G06  23528488.690 7 123643036.46107  23528492.976 5  96345243.36405  23528493.980 5  96345251.45705
G09  24808833.232 6 130371288.54206  24808838.345 3 101588046.10303  24808839.181 5
G11  20922638.241 7 109949218.96207  20922638.681 4  85674737.21704  20922638.765 7  85674706.21107
G12  22677055.458 6 119168745.50006  22677055.998 5  92858741.44105  22677057.732 5  92858758.36105
G20  20204755.890 7 106176713.37207  20204754.829 4  82735092.33904
G25  22068644.948 7 115971508.17807  22068648.448 4  90367426.10604  22068648.453 6  90367424.14106
G29  22791543.217 6 119770367.06006  22791543.210 4  93327558.03214  22791545.252 5  93327570.98205
R03  23359350.494 4                  23359358.055 5  97256807.51705
R04                                  20143498.689 7  83896964.04007
R05  20605692.600 5 110149237.04705  20605702.641 6  85671669.32506
R11  22922918.140 4                  22922931.747 5  95272466.62505
R19                                  20932750.201 6  87092533.37906
R20                                  20267573.378 6  84295386.60506
> 2022 06 16 19 44 13.0000000  0 30
C11  23000517.742 7 119769770.40207  23000518.675 6  92613581.13606
C14  22029924.195 7 114715595.48107  22029923.389 6  88705365.00806
C21  25496015.066 6 132764440.96006
C28  23102140.448 6 120298904.87906
C33  23534383.940 7 122549726.09507
C34  24867623.272 7 129492228.93407
C37  26407082.312 4
E02  25834721.034 6 135762349.05306                                  25834723.799 5 104025724.70005
E04  25618354.218 7 134625354.50507  25618352.711 4                  25618355.945 6 103154509.62706
E09  27409008.580 6 144035302.34906                                  27409015.584 5
E11  22569401.678 6 118603006.51806                                  22569399.407 5  90877621.77605
E12  26323339.389 6 138330073.67206                                  26323340.339 5 105993185.48205
E19  28438801.810 6 149446905.56206                                  28438804.359 4
E25  25921344.505 7 136217611.61007  25921346.076 4                  25921348.514 5 104374524.16005
E36  25292891.450 6 132915017.21606  25292891.783 4                  25292894.983 5 101844011.17105
G02  21448587.682 7 112713094.11807  21448585.351 4  87828368.21204
G05  20740076.675 7 108989834.49907  20740076.373 6  84927140.26306  20740077.396 6  84927158.28806
G06  23528951.920 6 123645471.01606  23528956.260 5  96347140.42805  23528957.572 6  96347148.44106
G09  24809151.890 5 130372961.79905  24809156.810 3 101589349.92003  24809157.212 5
G11  20922851.446 7 109950339.18107  20922851.855 4  85675610.10604  20922851.877 6  85675579.08106
G12  22677608.881 7 119171654.13507  22677609.502 5  92861007.89905  22677610.504 5  92861024.83605
G20  20204785.912 7 106176872.11607  20204785.030 4  82735216.03004
G25  22068814.529 6 115972399.90806  22068817.994 5  90368120.99305  22068818.571 6  90368118.99306
G29  22790928.690 6 119767138.15406  22790928.856 4  93325041.99204  22790930.344 5  93325055.00005
R03  23360012.621 4                  23360024.670 6  97259582.75306
R04                                  20143606.076 6  83897410.97506
R05  20605048.694 5 110145797.37605  20605059.369 6  85668994.01106
R11  22922813.705 4                  22922824.299 6  95272025.33106
R19                                  20933041.771 6  87093746.70806
R20                                  20267236.846 6  84293985.76106
> 2022 06 16 19 44 14.0000000  0 31
C11  23000814.942 7 119771318.28307  23000816.007 6  92614778.08706
C14  22029626.735 7 114714046.01407  22029625.569 6  88704166.80206
C21  25496508.787 6 132767012.93306
C28  23101701.998 6
C33  23533816.319 7 122546769.32607
C34  24868064.539 7 129494526.20407
C37  26407387.960 5
E02  25834694.423 6 135762209.77306                                  25834697.419 5 104025617.95305
E04  25617998.020 7 134623482.26707  25617996.211 4                  25617999.787 6 103153075.03706
E09  27408380.180 6 144032000.67506                                  27408387.276 4
E11  22569405.252 6 118603025.59106                                  22569403.122 5  90877636.39105
E12  26323665.059 6 138331785.04306                                  26323666.055 5 105994496.75205
E19  28438979.451 5 149447839.09905                                  28438982.262 4
E25  25921746.807 7 136219725.56007  25921747.909 5                  25921750.589 5 104376143.92505
E36  25292545.868 6 132913202.76806  25292545.988 4                  25292549.411 5 101842620.91505
G02  21448707.288 7 112713723.09407  21448705.066 4  87828858.32504
G05  20739664.265 7 108987666.93007  20739663.936 6  84925451.24006  20739665.046 6  84925469.23106
G06  23529415.476 6 123647907.06906  23529419.863 5  96349038.64605  23529421.280 6  96349046.66806
G09  24809471.359 6 130374640.33306  24809476.300 3 101590657.86903  24809476.396 5
G11  20923065.285 7 109951461.92607  20923065.527 4  85676484.96904  20923065.667 6  85676453.96406
G12  22678161.514 6 119174560.16606  22678162.475 5  92863272.30405  22678162.758 4  92863289.39804
G13  24989527.589 5 131320853.43715
G20  20204816.392 7 106177032.40807  20204815.498 4  82735340.94004
G25  22068984.303 7 115973292.91107  22068987.887 5  90368816.84105  22068988.892 6  90368814.81706
G29  22790315.464 6 119763913.68106  22790315.330 4  93322529.39604  22790315.921 5  93322542.66205
R03  23360678.897 4                  23360691.989 6  97262362.56106
R04                                  20143713.879 7  83897859.97507
R05  20604405.037 5 110142355.50305  20604415.938 6  85666316.96606
R11  22922709.136 5                  22922719.232 6  95271589.82106
R19                                  20933333.871 6  87094961.22706
R20                                  20266900.684 6  84292588.27506
> 2022 06 16 19 44 15.0000000  0 31
C11  23001112.159 7 119772865.83607  23001113.180 6  92615974.74506
C14  22029328.905 7 114712495.45507  22029327.921 6  88702967.89406
C21  25497003.145 6 132769588.46506
C28  23101263.771 7
C33  23533247.963 7 122543809.82607
C34  24868505.054 7 129496822.13707
C37  26407693.901 5
E02  25834668.256 6 135762072.86206                                  25834671.225 5 104025513.00505
E04  25617641.498 7 134621609.04207  25617639.590 4                  25617643.406 6 103151639.73806
E09  27407751.161 6 144028694.97006                                  27407758.141 5
E11  22569409.074 6 118603046.53306                                  22569407.156 5  90877652.45505
E12  26323990.849 6 138333497.17406                                  26323991.961 5 105995808.50705
E19  28439157.728 5 149448776.08505                                  28439160.479 4
E25  25922148.981 6 136221838.14806  25922149.903 4                  25922152.470 5 104377762.58405
E36  25292201.055 7 132911390.19507  25292200.739 4                  25292204.230 5 101841232.01405
G02  21448827.315 7 112714353.76807  21448825.161 4  87829349.76004
G05  20739251.518 7 108985498.34407  20739251.297 6  84923761.43106  20739252.046 6  84923779.47606
G06  23529879.303 6 123650344.18906  23529883.713 5  96350937.69905  23529885.313 6  96350945.68206
G09  24809791.292 6 130376322.95806  24809796.503 3 101591969.00003  24809797.092 5
G11  20923279.193 7 109952586.53307  20923279.547 4  85677361.28204  20923279.757 6  85677330.26206
G12  22678714.395 6 119177464.00106  22678715.066 4  92865535.02004  22678715.206 5  92865551.97305
G13  24988826.395 5 131317169.15305
G20  20204847.094 7 106177193.69807  20204846.152 4  82735466.62104
G25  22069154.298 7 115974187.05507  22069158.029 5  90369513.58805  22069159.117 6  90369511.59006
G29  22789702.472 6 119760692.90406  22789702.480 4  93320019.68604  22789703.109 5  93320032.69605
R03  23361347.476 4                  23361360.454 5  97265145.92105
R04                                  20143822.105 7  83898310.60307
R05  20603760.816 5 110138911.28505  20603772.068 6  85663638.16306
R11  22922606.257 4                  22922614.559 6  95271158.55806
R19                                  20933625.438 6  87096176.63506
R20                                  20266564.944 6  84291193.43706
> 2022 06 16 19 44 16.0000000  0 31
C11  23001409.602 7 119774413.91407  23001410.584 6  92617171.80406
C14  22029031.271 7 114710945.24507  22029030.215 6  88701769.15406
C21  25497498.171 6 132772165.91006
C28  23100825.918 7
C33  23532679.791 7 122540849.83407
C34  24868946.056 7 129499118.15107
C37  26408001.086 4
E02  25834642.490 6 135761937.39406                                  25834645.456 5 104025409.20205
E04  25617284.981 6 134619736.28706  25617283.488 4                  25617286.984 5 103150204.73805
E09  27407121.778 6 144025388.07206                                  27407128.581 5
E11  22569413.292 6 118603068.55606                                  22569411.430 5  90877669.30205
E12  26324316.767 6 138335210.00206                                  26324317.818 5 105997121.05805
E19  28439336.455 5 149449714.94105                                  28439339.442 4
E25  25922550.765 6 136223950.44106  25922552.072 4                  25922554.153 5 104379381.00005
E36  25291856.396 6 132909578.46506  25291856.075 4                  25291859.418 5 101839843.80605
G02  21448947.504 7 112714985.53007  21448945.322 4  87829842.04304
G05  20738838.674 7 108983329.80407  20738838.659 6  84922071.66006  20738839.276 6  84922089.64906
G06  23530343.081 6 123652782.18906  23530347.715 5  96352837.43905  23530349.634 6  96352845.50306
G09  24810112.122 5 130378007.66705  24810117.129 3 101593281.75503  24810118.007 5
G11  20923493.271 7 109953712.30807  20923493.780 4  85678238.50604  20923494.205 6  85678207.51306
G12  22679266.951 6                                                  22679267.672 5  92867814.14705
G13  24988124.777 5 131313483.53805
G20  20204877.958 7 106177356.00307  20204877.031 4  82735593.09204
G25  22069324.447 6 115975081.99206  22069328.297 5  90370210.94805  22069329.007 5  90370209.06805
G29  22789089.824 7 119757473.27407  22789089.837 4  93317510.88804  22789090.094 6  93317523.86406
R03  23362018.586 4                  23362029.816 6  97267931.00506
R04                                  20143930.545 7  83898762.69807
R05  20603116.423 5 110135467.14005  20603127.401 6  85660959.37906
R11  22922502.757 4                  22922511.057 6  95270728.55806
R19                                  20933918.022 6  87097392.86106
R20                                  20266229.886 6  84289799.72806
> 2022 06 16 19 44 17.0000000  0 31
C11  23001707.238 7 119775963.31307  23001708.276 6  92618369.89806
C14  22028733.897 7 114709396.60807  22028732.717 6  88700571.62706
C21  25497993.343 6 132774744.24006
C28  23100388.074 6
C33  23532111.483 7 122537891.33907
C34  24869387.444 7 129501415.68307
C37  26408308.443 5
E02  25834616.688 6 135761802.50706                                  25834620.029 5 104025305.82905
E04  25616928.884 7 134617865.07507  25616927.614 4                  25616930.927 6 103148770.98706
E09  27406492.770 5 144022082.57705                                  27406499.343 5
E11  22569417.601 6 118603091.31206                                  22569415.729 5  90877686.73205
E12  26324642.930 6 138336924.08606                                  26324644.071 5 105998434.35105
E19  28439515.425 5 149450655.01505                                  28439518.490 4
E25  25922952.855 7 136226063.41307  25922953.119 4                  25922956.315 5 104381000.04805
E36  25291511.769 6 132907767.02206  25291511.089 4                  25291514.953 5 101838455.74505
G02  21449067.931 7 112715618.13907  21449065.711 4  87830334.98304
G05  20738426.258 7 108981162.72207  20738426.297 6  84920383.02406  20738426.672 6  84920400.99606
G06  23530807.336 6 123655221.38606  23530811.915 5  96354738.11405  23530813.201 5  96354746.16905
G09  24810432.251 5 130379693.70705  24810438.001 3 101594595.56103  24810438.895 5
G11  20923707.757 7 109954839.12207  20923708.215 4  85679116.54504  20923708.710 6  85679085.55606
G12  22679819.401 7 119183272.47107  22679820.380 4  92870072.29014  22679820.508 5  92870077.20505
G13  24987423.934 6 131309799.44706
G20  20204909.101 7 106177519.56107  20204908.133 4  82735720.54004
G25  22069494.823 6 115975978.04906  22069498.767 5  90370909.18005  22069499.246 6  90370907.22006
G29  22788477.082 6 119754254.00806  22788477.266 5  93315002.36605  22788478.242 5  93315015.38505
R03  23362689.258 4                  23362697.631 6  97270716.84706
R04                                  20144039.371 7  83899216.12307
R05  20602472.833 5 110132024.92605  20602482.340 6  85658282.11006
R11  22922398.188 4                  22922408.380 6
R19                                  20934210.371 6  87098610.16006
R20                                  20265894.841 6  84288406.50006
> 2022 06 16 19 44 18.0000000  0 31
C11  23002005.051 7 119777513.48207  23002005.900 6  92619568.57806
C14  22028436.508 7 114707848.57907  22028435.502 6  88699374.58006
C21  25498488.997 6 132777324.52106
C28  23099950.425 6
C33  23531543.239 7 122534932.56507
C34  24869828.680 7 129503713.54207
C37  26408615.657 4
E02  25834591.303 6 135761669.10206                                  25834594.607 5 104025203.54405
E04  25616572.973 7 134615994.57107  25616571.785 4                  25616575.222 6 103147337.66706
E09  27405863.479 6 144018776.18006                                  27405870.226 5
E11  22569422.235 7 118603115.28407                                  22569420.281 5  90877705.10605
E12  26324969.268 6 138338639.04306                                  26324970.586 5 105999748.49405
E19  28439694.371 5 149451597.12705                                  28439697.650 4
E25  25923355.059 6 136228176.83406  25923355.301 4                  25923358.505 5 104382619.55305
E36  25291167.216 6 132905956.50706  25291166.305 4                  25291170.440 5 101837068.66105
G02  21449188.591 7 112716252.05707  21449186.304 4  87830828.94404
G05  20738013.922 7 108978996.04507  20738014.007 6  84918694.70406  20738014.848 6  84918712.71206
G06  23531271.806 7 123657661.65707  23531276.291 5  96356639.63105  23531277.512 5  96356647.69405
G09  24810753.077 5 130381382.03105  24810759.290 3 101595911.14303  24810760.168 4
G11  20923922.460 7 109955967.31407  20923922.891 4  85679995.65704  20923923.266 6  85679964.64406
G12  22680372.265 6 119186178.22706  22680373.398 4  92872336.51704  22680372.719 5  92872340.50905
G13  24986722.757 6 131306114.26406
G20  20204940.493 7 106177684.37907  20204939.488 4  82735848.96904
G25  22069665.693 6 115976874.77306  22069669.416 5  90371607.91805  22069669.355 6  90371605.92506
G29  22787864.778 6                  22787864.614 4                  22787867.134 5  93312507.92805
R03  23363357.184 4                  23363366.626 6  97273504.49906
R04                                  20144148.666 7  83899671.10707
R05  20601828.422 5 110128582.78105  20601838.357 6  85655604.94206
R11  22922296.575 4                  22922305.725 6
R19                                  20934503.038 6  87099828.34906
R20                                  20265560.189 6  84287014.52306
> 2022 06 16 19 44 19.0000000  0 31
C11  23002302.867 7 119779063.53607  23002303.530 6  92620767.16306
C14  22028138.933 7 114706299.88307  22028138.258 6  88698177.06806
C21  25498985.214 6 132779907.20106
C28  23099512.827 7
C33  23530974.617 7 122531971.81107
C34  24870270.012 7 129506010.73707
C37  26408923.054 4
E02  25834566.152 6 135761536.53206                                  25834569.394 5 104025102.07005
E04  25616217.121 7 134614123.63907  25616215.692 4                  25616219.365 6 103145904.11506
E09  27405233.884 6 144015467.04306                                  27405241.244 5
E11  22569427.035 6 118603140.26906                                  22569425.052 5  90877724.23705
E12  26325295.723 6 138340354.64406                                  26325297.056 5 106001062.96805
E19  28439874.165 5 149452541.58105                                  28439877.365 4
E25  25923756.852 6 136230287.98906  25923756.361 4                  25923760.643 5 104384237.07805
E36  25290822.827 6 132904146.38406  25290821.909 4                  25290826.163 5 101835681.58705
G02  21449309.462 7 112716886.90307  21449307.056 4  87831323.62604
G05  20737601.641 7 108976828.42607  20737601.542 6  84917005.65106  20737602.628 6  84917023.66106
G06  23531736.649 7 123660102.82807  23531740.822 5  96358541.84805  23531741.909 5  96358549.81805
G09  24811075.314 6 130383073.13506  24811081.067 3 101597228.89303  24811081.168 4
G11  20924137.428 7 109957096.65607  20924137.782 4  85680875.66404  20924138.305 6  85680844.65706
G12  22680924.176 6                  22680924.907 4                  22680925.021 5  92874601.48405
G13  24986021.188 6 131302426.35106
G20  20204971.983 7 106177849.74307  20204970.974 4  82735977.82504
G25  22069836.416 6 115977771.62306  22069840.076 5  90372306.76305  22069840.029 5  90372304.89305
G29  22787252.455 6 119747820.87206  22787252.612 4  93309990.74614  22787254.705 5  93310001.71805
R03  23364022.361 3                  23364036.501 6  97276294.46206
R04                                  20144258.411 7  83900127.35407
R05  20601184.274 5 110125139.39505  20601194.233 6  85652926.75406
R11  22922193.004 4                  22922203.715 6  95269446.18006
R19                                  20934795.589 6  87101047.26706
R20                                  20265225.896 6  84285623.87106
> 2022 06 16 19 44 20.0000000  0 31
C11  23002600.260 7 119780613.31707  23002600.909 6  92621965.57006
C14  22027841.239 7 114704750.56507  22027840.744 6  88696979.01306
C21  25499481.359 6 132782491.28506
C28  23099075.478 6
C33  23530405.607 7 122529009.49507
C34  24870711.190 7 129508307.24007
C37  26409230.621 3
E02  25834541.211 6 135761404.55706                                  25834544.213 5 104025001.01705
E04  25615861.007 7 134612252.30607  25615858.727 4                  25615863.243 6 103144470.20806
E09  27404604.042 6 144012155.63706                                  27404611.071 5
E11  22569431.944 6 118603165.54806                                  22569429.799 5  90877743.62205
E12  26325622.449 6 138342070.44006                                  26325623.493 5 106002377.73205
E19  28440054.049 5 149453487.34805                                  28440057.245 4
E25  25924158.449 7 136232397.90907  25924158.167 5                  25924162.389 6 104385853.87206
E36  25290478.461 6 132902336.21106  25290477.161 4                  25290481.792 5 101834294.54305
G02  21449430.410 7 112717522.11907  21449427.956 4  87831818.59504
G05  20737188.998 7 108974659.94507  20737188.912 6  84915315.92606  20737189.917 6  84915333.94106
G06  23532201.139 7 123662544.28407  23532205.421 5  96360444.27905  23532206.446 5  96360452.26105
G09  24811397.832 6 130384765.95906  24811403.107 3 101598547.96503  24811402.807 4
G11  20924352.481 7 109958226.51507  20924352.800 4  85681756.07004  20924353.001 7  85681725.06907
G12  22681476.095 7 119191980.76007  22681476.769 4  92876855.50214  22681476.930 5  92876861.44105
G13  24985318.970 6 131298736.06006
G20  20205003.577 7 106178015.27507  20205002.469 4  82736106.80504
G25  22070007.152 6 115978668.40306  22070010.735 5  90373005.56105  22070010.736 6  90373003.60506
G29  22786640.387 6 119744604.86606  22786640.658 4  93307484.78204  22786643.087 5  93307495.98205
R03  23364694.826 4                  23364707.110 5  97279085.62405
R04                                  20144368.381 7  83900584.48307
R05  20600539.885 5 110121694.98605  20600549.931 6  85650247.70806
R11  22922088.985 4                  22922101.437 5  95269022.28605
R19                                  20935089.015 6  87102266.44506
R20                                  20264891.881 6  84284233.71506
> 2022 06 16 19 44 21.0000000  0 31
C11  23002897.689 7 119782163.28207  23002898.653 7  92623164.08307
C14  22027543.469 7 114703201.48907  22027543.142 6  88695781.22406
C21  25499977.841 6 132785076.17606
C28  23098638.088 6 120280668.55806
C33  23529836.815 7 122526046.98507
C34  24871151.989 7 129510603.73207
C37  26409537.974 4
E02  25834516.369 6 135761272.84706                                  25834519.020 5 104024900.04405
E04  25615504.920 7 134610381.14907  25615502.830 4                  25615507.202 6 103143036.50306
E09  27403973.933 6 144008843.58406                                  27403980.787 5
E11  22569436.677 6 118603191.13306                                  22569434.672 5  90877763.26705
E12  26325949.083 6 138343786.37006                                  26325949.932 5 106003692.52905
E19  28440234.245 5 149454434.13005                                  28440237.103 4
E25  25924559.804 6 136234507.80106  25924559.737 4                  25924563.929 5 104387470.36705
E36  25290134.216 6 132900526.06506  25290132.649 4                  25290137.565 5 101832907.58805
G02  21449551.372 7 112718157.73107  21449548.928 4  87832313.87704
G05  20736776.429 7 108972491.64807  20736776.326 6  84913626.34606  20736777.177 6  84913644.35806
G06  23532665.675 6 123664986.01106  23532670.066 5  96362346.91805  23532670.973 5  96362354.82805
G09  24811720.326 6 130386460.03006  24811725.347 3 101599868.01303  24811725.976 5
G11  20924567.517 7 109959356.84807  20924567.934 4  85682636.84704  20924568.221 6  85682605.83406
G12  22682027.813 6 119194880.81006  22682028.608 4  92879115.24604  22682028.633 5  92879121.27505
G13  24984616.345 6 131295045.17606
G20  20205035.177 7 106178181.33407  20205034.056 4  82736236.20204
G25  22070177.901 7 115979565.32707  22070181.391 5  90373704.46505  22070181.585 6  90373702.44906
G29  22786027.781 6                  22786027.840 4                  22786030.551 5  93304990.41305
R03  23365365.846 4                  23365377.703 5  97281877.75605
R04                                  20144477.836 7  83901042.42707
R05  20599894.808 5 110118250.67505  20599905.872 6  85647568.82406
R11  22921985.945 3                  22921998.750 5  95268598.18405
R19                                  20935381.701 6  87103485.97806
R20                                  20264557.485 6  84282844.12706
> 2022 06 16 19 44 22.0000000  0 31
C11  23003195.095 7 119783712.73507  23003196.268 7  92624362.21907
C14  22027245.835 7 114701652.25507  22027245.534 6  88694583.26406
C21  25500474.086 6 132787660.82706
C28  23098200.877 7 120278391.35707
C33  23529267.783 7 122523084.06207
C34  24871592.783 7 129512899.62607
C37  26409845.568 4
E02                                                                  25834494.007 5 104024799.65105
E04  25615148.727 7 134608509.57407  25615146.688 4                  25615151.101 6 103141602.49506
E09  27403343.505 6 144005530.77206                                  27403350.521 5
E11  22569441.509 6 118603216.34606                                  22569439.282 5  90877782.56205
E12  26326275.396 6 138345501.72106                                  26326276.554 5 106005006.90505
E19  28440414.425 5 149455380.77605                                  28440417.345 4
E25  25924961.208 6 136236617.53706  25924960.966 4                  25924965.459 5 104389087.07905
E36  25289789.525 6 132898716.14206  25289788.580 4                  25289793.026 5 101831520.70105
G02  21449672.168 7 112718792.93007  21449669.815 4  87832808.83804
G05  20736363.754 7 108970323.29007  20736363.718 6  84911936.71806  20736364.247 6  84911954.70706
G06  23533130.182 7 123667427.13407  23533134.583 5  96364249.09105  23533135.208 5  96364257.08705
G09  24812043.214 6 130388154.01406  24812047.653 3 101601188.00303  24812047.955 5
G11  20924782.554 7 109960486.84407  20924782.962 4  85683517.36104  20924783.349 6  85683486.37206
G12  22682579.670 6 119197780.53106  22682580.413 4  92881374.76004  22682580.968 5  92881380.71805
G13  24983914.148 6 131291353.22806
G20  20205066.910 7 106178347.33607  20205065.624 4  82736365.55904
G25  22070348.732 6 115980462.65806  22070352.143 5  90374403.69005  22070352.418 5  90374401.82605
G29  22785415.919 6                  22785415.581 5                  22785417.863 5  93302485.06305
R03  23366038.629 4                  23366048.074 5  97284669.73005
R04                                  20144588.096 7  83901500.57507
R05  20599251.080 5 110114806.24005  20599261.566 6  85644889.86106
R11  22921886.854 3                  22921897.340 5  95268175.92605
R19                                  20935675.323 6  87104705.24806
R20                                  20264223.329 6  84281454.35606
> 2022 06 16 19 44 23.0000000  0 31
C11  23003492.545 7 119785261.80407  23003493.922 7  92625560.06207
C14  22026948.153 7 114700102.84307  22026947.816 6  88693385.12306
C21  25500970.483 6 132790245.32406
C28  23097763.785 7 120276113.83607
C33  23528698.749 7 122520120.64807
C34  24872033.587 7 129515194.98107
C37  26410151.413 4
E02  25834466.555 6 135761010.26406                                  25834468.755 5 104024698.90705
E04  25614792.602 7 134606637.75307  25614790.255 4                  25614794.942 6 103140168.20606
E09  27402712.766 6 144002217.05706                                  27402720.272 5
E11  22569446.299 6 118603241.14506                                  22569444.055 5  90877801.56105
E12  26326601.577 6 138347216.54806                                  26326603.099 5 106006320.87105
E19  28440594.654 5 149456327.47205                                  28440597.278 4
E25  25925362.636 7 136238726.57307  25925362.505 4                  25925366.614 5 104390703.17205
E36  25289444.925 6 132896905.02306  25289444.712 4                  25289448.319 5 101830133.15505
G02  21449793.051 7 112719427.70607  21449790.602 4  87833303.46904
G05  20735951.036 7 108968154.74307  20735951.078 6  84910246.94106  20735951.672 6  84910264.97006
G06  23533594.470 6 123669867.75906  23533599.027 5  96366150.87405  23533599.151 5  96366158.92305
G09  24812365.618 6 130389848.19206  24812370.052 3 101602508.13603  24812370.444 5
G11  20924997.468 7 109961616.56307  20924997.954 4  85684397.66304  20924998.215 6  85684366.67406
G12  22683131.279 6 119200679.77706  22683132.098 4  92883633.90104  22683132.791 5  92883639.86305
G13  24983211.594 6 131287660.38206
G20  20205098.448 7 106178513.23607  20205097.172 4  82736494.83404
G25  22070519.336 6 115981359.78506  22070522.827 5  90375102.75105  22070522.795 5  90375100.73505
G29  22784803.980 6                                                  22784805.602 5  93299979.49905
R03  23366706.644 4                  23366719.011 5  97287461.73005
R04                                  20144698.106 6  83901958.98906
R05  20598606.521 5 110111361.69805  20598617.004 6  85642210.74606
R11  22921784.655 4                  22921796.035 5
R19                                  20935968.611 6  87105924.27306
R20                                  20263889.090 6  84280064.45506
> 2022 06 16 19 44 24.0000000  0 31
C11  23003790.330 7 119786812.03207  23003791.591 6  92626758.77606
C14  22026650.898 7 114698554.84707  22026650.429 6  88692188.13806
C21  25501466.914 6 132792830.83706
C28  23097326.650 6 120273837.58506
C33  23528129.822 7 122517158.62907
C34  24872474.684 7 129517491.34607
C37  26410456.615 5
